id,type,name,state,region,total_inflow,total_outflow,total_flow,edge_count,lat,lon,coordinate_status,geocode_priority,geocode_query,notes
MAOB-OP1,source_dsa,New England Organ Bank,Rhode Island,Region  1,0,1580,1580,109,42.39484928,-71.26684871,manual,1,"New England Organ Bank, Rhode Island (organ procurement)",
ILIP-OP1,source_dsa,Gift of Hope Organ & Tissue Donor Network,Illinois,Region  7,0,1386,1386,129,41.96585537,-88.02764348,manual,1,"Gift of Hope Organ & Tissue Donor Network, Illinois (organ procurement)",
INOP-OP1,source_dsa,Indiana Donor Network,Indiana,Region  10,0,1247,1247,124,39.82306352,-86.2224039,manual,1,"Indiana Donor Network, Indiana (organ procurement)",
NYRT-OP1,source_dsa,LiveOnNY,New York,Region  9,0,1234,1234,103,40.7429828,-73.93605254,manual,1,"LiveOnNY, New York (organ procurement)",
PATF-OP1,source_dsa,Center for Organ Recovery and Education,West Virginia,Region  2,0,1093,1093,123,40.50468733,-79.86555062,manual,1,"Center for Organ Recovery and Education, West Virginia (organ procurement)",
MIOP-OP1,source_dsa,Gift of Life Michigan,Michigan,Region  10,0,1077,1077,125,43.3266,-84.5361,state_centroid,1,"Gift of Life Michigan, Michigan (organ procurement)",
MWOB-OP1,source_dsa,Midwest Transplant Network,Missouri,Region  8,0,980,980,123,38.4561,-92.2884,state_centroid,1,"Midwest Transplant Network, Missouri (organ procurement)",
FLWC-OP1,source_dsa,LifeLink of Florida,Florida,Region  3,0,909,909,80,27.7663,-81.6868,state_centroid,1,"LifeLink of Florida, Florida (organ procurement)",
LAOP-OP1,source_dsa,Louisiana Organ Procurement Agency,Louisiana,Region  3,0,894,894,92,31.1695,-91.8678,state_centroid,1,"Louisiana Organ Procurement Agency, Louisiana (organ procurement)",
TNVU-TX1,transplant_center,Vanderbilt University Medical Center,Tennessee,Region  11,893,0,893,53,36.1409,-86.8016,facility_or_city,1,"Vanderbilt University Medical Center, Tennessee (transplant center hospital)",nominatim_batch;review
NCNC-OP1,source_dsa,HonorBridge,North Carolina,Region  11,0,822,822,102,35.6301,-79.8064,state_centroid,1,"HonorBridge, North Carolina (organ procurement)",
OHCC-TX1,transplant_center,The Cleveland Clinic Foundation,Ohio,Region  11,803,0,803,50,40.3888,-82.7649,state_centroid,1,"The Cleveland Clinic Foundation, Ohio (transplant center hospital)",
KYDA-OP1,source_dsa,Network for Hope,Ohio,Region  11,0,798,798,110,,,missing,1,"Network for Hope, Ohio (organ procurement)",
FLUF-IO1,source_dsa,LifeQuest Organ Recovery Services,Florida,Region  3,0,772,772,81,,,missing,1,"LifeQuest Organ Recovery Services, Florida (organ procurement)",
FLTG-TX1,transplant_center,Tampa General Hospital,Florida,Region  3,760,0,760,47,27.9375,-82.4589,facility_or_city,1,"Tampa General Hospital, Florida (transplant center hospital)",nominatim_batch;review
MOMA-OP1,source_dsa,Mid-America Transplant Services,Missouri,Region  8,0,719,719,96,38.4561,-92.2884,state_centroid,1,"Mid-America Transplant Services, Missouri (organ procurement)",
SCOP-OP1,source_dsa,We Are Sharing Hope SC,South Carolina,Region  11,0,713,713,93,33.8569,-80.945,state_centroid,1,"We Are Sharing Hope SC, South Carolina (organ procurement)",
TXSA-OP1,source_dsa,Texas Organ Sharing Alliance,Texas,Region  4,0,701,701,94,31.0545,-97.5635,state_centroid,1,"Texas Organ Sharing Alliance, Texas (organ procurement)",
VATB-OP1,source_dsa,LifeNet Health,Virginia,Region  11,0,690,690,102,36.7795,-76.093,facility_or_city,1,"LifeNet Health, Virginia (organ procurement)",nominatim_batch;review
MDPC-OP1,source_dsa,Infinite Legacy,Virginia,Region  11,0,687,687,100,,,missing,1,"Infinite Legacy, Virginia (organ procurement)",
NVLV-OP1,source_dsa,Nevada Donor Network,Nevada,Region  5,0,679,679,75,,,missing,1,"Nevada Donor Network, Nevada (organ procurement)",
NJTO-OP1,source_dsa,New Jersey Organ and Tissue Sharing Network OPO,New Jersey,Region  2,0,657,657,96,,,missing,1,"New Jersey Organ and Tissue Sharing Network OPO, New Jersey (organ procurement)",
FLMP-OP1,source_dsa,South Florida Donor Network,Florida,Region  3,0,635,635,62,27.7663,-81.6868,state_centroid,1,"South Florida Donor Network, Florida (organ procurement)",
ORUO-IO1,source_dsa,Cascade Life Alliance,Oregon,Region  6,0,623,623,78,,,missing,1,"Cascade Life Alliance, Oregon (organ procurement)",
CAUC-TX1,transplant_center,University of California at Los Angeles Medical Center,California,Region  5,620,0,620,40,36.1162,-119.6816,state_centroid,1,"University of California at Los Angeles Medical Center, California (transplant center hospital)",
OKOP-OP1,source_dsa,LifeShare Transplant Donor Services of Oklahoma,Oklahoma,Region  4,0,618,618,95,,,missing,1,"LifeShare Transplant Donor Services of Oklahoma, Oklahoma (organ procurement)",
SCMU-TX1,transplant_center,Medical University of South Carolina,South Carolina,Region  11,612,0,612,43,32.7902,-79.9576,facility_or_city,1,"Medical University of South Carolina, South Carolina (transplant center hospital)",nominatim_batch;review
NCDU-TX1,transplant_center,Duke University Hospital,North Carolina,Region  11,611,0,611,51,36.007,-78.9373,facility_or_city,1,"Duke University Hospital, North Carolina (transplant center hospital)",nominatim_batch;review
CACS-TX1,transplant_center,Cedars-Sinai Medical Center,California,Region  5,597,0,597,37,34.0752,-118.3811,facility_or_city,1,"Cedars-Sinai Medical Center, California (transplant center hospital)",nominatim_batch;review
ILNM-TX1,transplant_center,Northwestern Memorial Hospital,Illinois,Region  7,592,0,592,50,41.8946,-87.6215,facility_or_city,1,"Northwestern Memorial Hospital, Illinois (transplant center hospital)",nominatim_batch;review
NCCM-IO1,source_dsa,LifeShare Carolinas,North Carolina,Region  11,0,590,590,92,,,missing,1,"LifeShare Carolinas, North Carolina (organ procurement)",
ALOB-OP1,source_dsa,Legacy of Hope,Alabama,Region  3,0,585,585,85,32.8067,-86.7911,state_centroid,1,"Legacy of Hope, Alabama (organ procurement)",
OHLB-OP1,source_dsa,Lifebanc,Ohio,Region  11,0,570,570,89,40.3888,-82.7649,state_centroid,1,"Lifebanc, Ohio (organ procurement)",
GAPH-TX1,transplant_center,Piedmont Hospital,Georgia,Region  3,565,0,565,41,33.4713,-81.9824,facility_or_city,1,"Piedmont Hospital, Georgia (transplant center hospital)",nominatim_batch;review
FLFH-IO1,source_dsa,OurLegacy,Florida,Region  3,0,556,556,78,,,missing,1,"OurLegacy, Florida (organ procurement)",
MOBH-TX1,transplant_center,Barnes-Jewish Hospital,Missouri,Region  8,551,0,551,41,38.6372,-90.2644,facility_or_city,1,"Barnes-Jewish Hospital, Missouri (transplant center hospital)",nominatim_batch;review
CASF-TX1,transplant_center,University of California San Francisco Medical Center,California,Region  5,548,0,548,33,36.1162,-119.6816,state_centroid,1,"University of California San Francisco Medical Center, California (transplant center hospital)",
OHOU-TX1,transplant_center,Ohio State University Medical Center,Ohio,Region  11,530,0,530,46,,,missing,1,"Ohio State University Medical Center, Ohio (transplant center hospital)",
WIUW-IO1,source_dsa,UW Health Organ and Tissue Donation,Wisconsin,Region  7,0,530,530,92,,,missing,1,"UW Health Organ and Tissue Donation, Wisconsin (organ procurement)",
PAUP-TX1,transplant_center,Hospital of the University of Pennsylvania,Pennsylvania,Region  2,523,0,523,37,39.9499,-75.1941,facility_or_city,1,"Hospital of the University of Pennsylvania, Pennsylvania (transplant center hospital)",nominatim_batch;review
NYUC-TX1,transplant_center,NYU Langone Health,New York,Region  9,503,0,503,51,40.7434,-73.9722,facility_or_city,1,"NYU Langone Health, New York (transplant center hospital)",nominatim_batch;review
DCGU-TX1,transplant_center,Medstar Georgetown Transplant Institute,District of Columbia,Region  2,502,0,502,44,,,missing,1,"Medstar Georgetown Transplant Institute, District of Columbia (transplant center hospital)",
NYMS-TX1,transplant_center,Mount Sinai Medical Center,New York,Region  9,496,0,496,44,40.7332,-73.982,facility_or_city,1,"Mount Sinai Medical Center, New York (transplant center hospital)",nominatim_batch;review
MAMG-TX1,transplant_center,Massachusetts General Hospital,Massachusetts,Region  1,495,0,495,46,42.3629,-71.0688,facility_or_city,1,"Massachusetts General Hospital, Massachusetts (transplant center hospital)",nominatim_batch;review
FLJM-TX1,transplant_center,Jackson Memorial Hospital University of Miami School of Medicine,Florida,Region  3,490,0,490,49,27.7663,-81.6868,state_centroid,1,"Jackson Memorial Hospital University of Miami School of Medicine, Florida (transplant center hospital)",
VAMC-TX1,transplant_center,"VCU Health System Authority, VCUMC",Virginia,Region  11,490,0,490,41,,,missing,1,"VCU Health System Authority, VCUMC, Virginia (transplant center hospital)",
FLSL-TX1,transplant_center,Mayo Clinic Hospital Florida,Florida,Region  3,470,0,470,46,30.2605,-81.4448,facility_or_city,1,"Mayo Clinic Hospital Florida, Florida (transplant center hospital)",nominatim_batch;review
CASD-IO1,source_dsa,Lifesharing - A Donate Life Organization,California,Region  5,0,463,463,62,,,missing,1,"Lifesharing - A Donate Life Organization, California (organ procurement)",
CASD-TX1,transplant_center,University of California San Diego Medical Center,California,Region  5,445,0,445,30,36.1162,-119.6816,state_centroid,1,"University of California San Diego Medical Center, California (transplant center hospital)",
UTLD-TX1,transplant_center,Intermountain Medical Center,Utah,Region  5,438,0,438,25,40.6596,-111.8912,facility_or_city,1,"Intermountain Medical Center, Utah (transplant center hospital)",nominatim_batch;review
WIUW-TX1,transplant_center,University of Wisconsin Hospital and Clinics,Wisconsin,Region  7,438,0,438,46,,,missing,1,"University of Wisconsin Hospital and Clinics, Wisconsin (transplant center hospital)",
COUC-TX1,transplant_center,University of Colorado Hospital/Health Science Center,Colorado,Region  8,435,0,435,28,39.0598,-105.3111,state_centroid,1,"University of Colorado Hospital/Health Science Center, Colorado (transplant center hospital)",
INIM-TX1,transplant_center,Indiana University Health,Indiana,Region  10,429,0,429,34,39.7807,-86.159,facility_or_city,1,"Indiana University Health, Indiana (transplant center hospital)",nominatim_batch;review
MIUM-TX1,transplant_center,University of Michigan Medical Center,Michigan,Region  10,425,0,425,43,42.2836,-83.7312,facility_or_city,1,"University of Michigan Medical Center, Michigan (transplant center hospital)",nominatim_batch;review
MNMC-TX1,transplant_center,Mayo Clinic Hospital Minnesota,Minnesota,Region  7,425,0,425,45,44.0193,-92.481,facility_or_city,1,"Mayo Clinic Hospital Minnesota, Minnesota (transplant center hospital)",nominatim_batch;review
NYCP-TX1,transplant_center,NY Presbyterian Hospital/Columbia Univ. Medical Center,New York,Region  9,424,0,424,51,,,missing,1,"NY Presbyterian Hospital/Columbia Univ. Medical Center, New York (transplant center hospital)",
CASU-TX1,transplant_center,Stanford Health Care,California,Region  5,419,0,419,28,37.2535,-121.9516,facility_or_city,1,"Stanford Health Care, California (transplant center hospital)",nominatim_batch;review
OHLC-OP1,source_dsa,Life Connection of Ohio,Ohio,Region  11,0,409,409,90,,,missing,1,"Life Connection of Ohio, Ohio (organ procurement)",
TXSP-TX1,transplant_center,UT Southwestern Medical Center/William P. Clements Jr. University Hospital,Texas,Region  4,409,0,409,40,31.0545,-97.5635,state_centroid,1,"UT Southwestern Medical Center/William P. Clements Jr. University Hospital, Texas (transplant center hospital)",
FLUF-TX1,transplant_center,UF Health Shands Hospital,Florida,Region  3,406,0,406,33,30.3485,-81.6649,facility_or_city,1,"UF Health Shands Hospital, Florida (transplant center hospital)",nominatim_batch;review
ALUA-TX1,transplant_center,University of Alabama Hospital,Alabama,Region  3,401,0,401,39,30.6983,-88.0775,facility_or_city,1,"University of Alabama Hospital, Alabama (transplant center hospital)",nominatim_batch;review
AROR-OP1,source_dsa,Southern Legacy of Life,Arkansas,Region  3,0,400,400,77,,,missing,1,"Southern Legacy of Life, Arkansas (organ procurement)",
TXTX-TX1,transplant_center,Baylor University Medical Center,Texas,Region  4,400,0,400,41,32.7899,-96.7779,facility_or_city,1,"Baylor University Medical Center, Texas (transplant center hospital)",nominatim_batch;review
MDJH-TX1,transplant_center,Johns Hopkins Hospital,Maryland,Region  2,397,0,397,42,39.2964,-76.5924,facility_or_city,1,"Johns Hopkins Hospital, Maryland (transplant center hospital)",nominatim_batch;review
MNUM-TX1,transplant_center,"University of Minnesota Medical Center, Fairview",Minnesota,Region  7,397,0,397,42,45.6945,-93.9002,state_centroid,1,"University of Minnesota Medical Center, Fairview, Minnesota (transplant center hospital)",
WAUW-TX1,transplant_center,University of Washington Medical Center,Washington,Region  6,395,0,395,17,47.4009,-121.4905,state_centroid,1,"University of Washington Medical Center, Washington (transplant center hospital)",
OHLP-OP1,source_dsa,Lifeline of Ohio,Ohio,Region  11,0,382,382,77,,,missing,1,"Lifeline of Ohio, Ohio (organ procurement)",
CAGS-OP1,source_dsa,Sierra Donor Services,California,Region  5,0,377,377,55,,,missing,1,"Sierra Donor Services, California (organ procurement)",
TXHI-TX1,transplant_center,CHI St. Luke's Health Baylor College of Medicine Medical Center,Texas,Region  4,374,0,374,39,31.0545,-97.5635,state_centroid,1,"CHI St. Luke's Health Baylor College of Medicine Medical Center, Texas (transplant center hospital)",
NYNS-TX1,transplant_center,North Shore University Hospital/Northwell Health,New York,Region  9,373,0,373,43,,,missing,1,"North Shore University Hospital/Northwell Health, New York (transplant center hospital)",
NEUN-TX1,transplant_center,The Nebraska Medical Center,Nebraska,Region  8,353,0,353,28,41.1254,-98.2681,state_centroid,1,"The Nebraska Medical Center, Nebraska (transplant center hospital)",
FLFH-TX1,transplant_center,AdventHealth Orlando,Florida,Region  3,351,0,351,35,28.5751,-81.3698,facility_or_city,1,"AdventHealth Orlando, Florida (transplant center hospital)",nominatim_batch;review
NYAP-OP1,source_dsa,Center for Donation and Transplant,New York,Region  9,0,346,346,71,,,missing,1,"Center for Donation and Transplant, New York (organ procurement)",
ILUC-TX1,transplant_center,University of Chicago Medical Center,Illinois,Region  7,344,0,344,38,40.3495,-88.9861,state_centroid,1,"University of Chicago Medical Center, Illinois (transplant center hospital)",
IAOP-OP1,source_dsa,Iowa Donor Network,Iowa,Region  8,0,338,338,77,41.751,-91.6363,facility_or_city,1,"Iowa Donor Network, Iowa (organ procurement)",nominatim_batch;review
NCCM-TX1,transplant_center,Carolinas Medical Center,North Carolina,Region  11,334,0,334,33,35.2038,-80.8387,facility_or_city,1,"Carolinas Medical Center, North Carolina (transplant center hospital)",nominatim_batch;review
VAUV-TX1,transplant_center,University of Virginia Health Sciences Center,Virginia,Region  11,333,0,333,40,,,missing,1,"University of Virginia Health Sciences Center, Virginia (transplant center hospital)",
LAOF-TX1,transplant_center,Ochsner Foundation Hospital,Louisiana,Region  3,329,0,329,32,29.9611,-90.1457,facility_or_city,1,"Ochsner Foundation Hospital, Louisiana (transplant center hospital)",nominatim_batch;review
NEOR-OP1,source_dsa,Live On Nebraska,Nebraska,Region  8,0,327,327,71,41.1254,-98.2681,state_centroid,1,"Live On Nebraska, Nebraska (organ procurement)",
MIHF-TX1,transplant_center,Henry Ford Hospital,Michigan,Region  10,325,0,325,36,42.3691,-83.0854,facility_or_city,1,"Henry Ford Hospital, Michigan (transplant center hospital)",nominatim_batch;review
CALL-TX1,transplant_center,Loma Linda University Medical Center,California,Region  5,324,0,324,21,34.0491,-117.2634,facility_or_city,1,"Loma Linda University Medical Center, California (transplant center hospital)",nominatim_batch;review
CAUH-TX1,transplant_center,Keck Hospital of USC,California,Region  5,322,0,322,13,34.0627,-118.2019,facility_or_city,1,"Keck Hospital of USC, California (transplant center hospital)",nominatim_batch;review
TXHS-TX1,transplant_center,Methodist Specialty and Transplant Hospital,Texas,Region  4,321,0,321,33,29.5142,-98.5764,facility_or_city,1,"Methodist Specialty and Transplant Hospital, Texas (transplant center hospital)",nominatim_batch;review
WIDN-OP1,source_dsa,"Versiti Blood Health, Inc.",Wisconsin,Region  7,0,317,317,71,,,missing,1,"Versiti Blood Health, Inc., Wisconsin (organ procurement)",
MSOP-OP1,source_dsa,Mississippi Organ Recovery Agency,Mississippi,Region  3,0,314,314,82,,,missing,1,"Mississippi Organ Recovery Agency, Mississippi (organ procurement)",
CAPM-TX1,transplant_center,California Pacific Medical Center-Van Ness Campus,California,Region  5,312,0,312,14,36.1162,-119.6816,state_centroid,1,"California Pacific Medical Center-Van Ness Campus, California (transplant center hospital)",
NYMA-TX1,transplant_center,Montefiore Medical Center,New York,Region  9,298,0,298,44,40.8801,-73.8798,facility_or_city,1,"Montefiore Medical Center, New York (transplant center hospital)",nominatim_batch;review
ILLU-TX1,transplant_center,Loyola University Medical Center,Illinois,Region  7,295,0,295,38,41.8583,-87.8352,facility_or_city,1,"Loyola University Medical Center, Illinois (transplant center hospital)",nominatim_batch;review
NJSB-TX1,transplant_center,Saint Barnabas Medical Center,New Jersey,Region  2,295,0,295,39,40.7635,-74.3048,facility_or_city,1,"Saint Barnabas Medical Center, New Jersey (transplant center hospital)",nominatim_batch;review
TXBC-TX1,transplant_center,"University Hospital, University of Texas Health Science Center",Texas,Region  4,288,0,288,36,,,missing,1,"University Hospital, University of Texas Health Science Center, Texas (transplant center hospital)",
OHUH-TX1,transplant_center,University Hospitals of Cleveland,Ohio,Region  11,265,0,265,32,41.5061,-81.6051,facility_or_city,1,"University Hospitals of Cleveland, Ohio (transplant center hospital)",nominatim_batch;review
NMOP-OP1,source_dsa,New Mexico Donor Services,New Mexico,Region  5,0,259,259,66,35.1011,-106.6297,facility_or_city,1,"New Mexico Donor Services, New Mexico (organ procurement)",nominatim_batch;review
OHUC-TX1,transplant_center,University of Cincinnati  Medical Center,Ohio,Region  11,259,0,259,32,39.1377,-84.5031,facility_or_city,1,"University of Cincinnati  Medical Center, Ohio (transplant center hospital)",nominatim_batch;review
UTMC-TX1,transplant_center,University of Utah Medical Center,Utah,Region  5,257,0,257,26,40.15,-111.8624,state_centroid,1,"University of Utah Medical Center, Utah (transplant center hospital)",
CASM-TX1,transplant_center,University of California Davis Medical Center,California,Region  5,253,0,253,24,38.5527,-121.4518,facility_or_city,1,"University of California Davis Medical Center, California (transplant center hospital)",nominatim_batch;review
NYNY-TX1,transplant_center,New York-Presbyterian Hospital/Weill Cornell Medical Center,New York,Region  9,251,0,251,29,,,missing,1,"New York-Presbyterian Hospital/Weill Cornell Medical Center, New York (transplant center hospital)",
PAPT-TX1,transplant_center,University of Pittsburgh Medical Center,Pennsylvania,Region  2,248,0,248,40,,,missing,1,"University of Pittsburgh Medical Center, Pennsylvania (transplant center hospital)",
FLCC-TX1,transplant_center,Cleveland Clinic Florida Weston,Florida,Region  3,247,0,247,18,26.0825,-80.3678,facility_or_city,1,"Cleveland Clinic Florida Weston, Florida (transplant center hospital)",nominatim_batch;review
ILUI-TX1,transplant_center,University of Illinois Medical Center,Illinois,Region  7,246,0,246,27,,,missing,1,"University of Illinois Medical Center, Illinois (transplant center hospital)",
NJHK-TX1,transplant_center,Hackensack University Medical Center,New Jersey,Region  2,246,0,246,38,40.8837,-74.0559,facility_or_city,1,"Hackensack University Medical Center, New Jersey (transplant center hospital)",nominatim_batch;review
NCMH-TX1,transplant_center,University of North Carolina Hospitals,North Carolina,Region  11,242,0,242,31,,,missing,1,"University of North Carolina Hospitals, North Carolina (transplant center hospital)",
VAFH-TX1,transplant_center,Inova Fairfax Hospital,Virginia,Region  11,242,0,242,36,38.8574,-77.2285,facility_or_city,1,"Inova Fairfax Hospital, Virginia (transplant center hospital)",nominatim_batch;review
TNMS-OP1,source_dsa,Mid-South Transplant Foundation,Tennessee,Region  11,0,240,240,65,,,missing,1,"Mid-South Transplant Foundation, Tennessee (organ procurement)",
KSUK-TX1,transplant_center,University of Kansas Hospital,Kansas,Region  8,238,0,238,29,39.0571,-94.6095,facility_or_city,1,"University of Kansas Hospital, Kansas (transplant center hospital)",nominatim_batch;review
PATU-TX1,transplant_center,Temple University Hospital,Pennsylvania,Region  2,230,0,230,48,40.0053,-75.1508,facility_or_city,1,"Temple University Hospital, Pennsylvania (transplant center hospital)",nominatim_batch;review
PRLL-OP1,source_dsa,LifeLink of Puerto Rico,Puerto Rico,Region  3,0,226,226,50,,,missing,1,"LifeLink of Puerto Rico, Puerto Rico (organ procurement)",
WISE-TX1,transplant_center,Froedtert Memorial Lutheran Hospital,Wisconsin,Region  7,226,0,226,34,43.0414,-88.0246,facility_or_city,1,"Froedtert Memorial Lutheran Hospital, Wisconsin (transplant center hospital)",nominatim_batch;review
TXHD-TX1,transplant_center,Medical City Dallas Hospital,Texas,Region  4,218,0,218,21,32.9121,-96.7739,facility_or_city,1,"Medical City Dallas Hospital, Texas (transplant center hospital)",nominatim_batch;review
WASM-TX1,transplant_center,Swedish Medical Center,Washington,Region  6,216,0,216,8,47.6087,-122.3227,facility_or_city,1,"Swedish Medical Center, Washington (transplant center hospital)",nominatim_batch;review
ORUO-TX1,transplant_center,Oregon Health and Science University,Oregon,Region  6,214,0,214,15,44.572,-122.0709,state_centroid,1,"Oregon Health and Science University, Oregon (transplant center hospital)",
MDUM-TX1,transplant_center,University of Maryland Medical System,Maryland,Region  2,212,0,212,25,,,missing,1,"University of Maryland Medical System, Maryland (transplant center hospital)",
CAIM-TX1,transplant_center,University of California Irvine Medical Center,California,Region  5,210,0,210,19,36.1162,-119.6816,state_centroid,1,"University of California Irvine Medical Center, California (transplant center hospital)",
MABI-TX1,transplant_center,Beth Israel Deaconess Medical Center,Massachusetts,Region  1,210,0,210,22,42.2475,-71.003,facility_or_city,1,"Beth Israel Deaconess Medical Center, Massachusetts (transplant center hospital)",nominatim_batch;review
TNMH-TX1,transplant_center,Methodist University Hospital,Tennessee,Region  11,210,0,210,29,39.7912,-86.1632,facility_or_city,1,"Methodist University Hospital, Tennessee (transplant center hospital)",nominatim_batch;review
TXMC-TX1,transplant_center,Methodist Dallas Medical Center,Texas,Region  4,202,0,202,23,32.7613,-96.825,facility_or_city,1,"Methodist Dallas Medical Center, Texas (transplant center hospital)",nominatim_batch;review
OKBC-TX1,transplant_center,Integris Baptist Medical Center,Oklahoma,Region  4,201,0,201,23,35.5295,-97.5765,facility_or_city,1,"Integris Baptist Medical Center, Oklahoma (transplant center hospital)",nominatim_batch;review
ARUA-TX1,transplant_center,UAMS Medical Center,Arkansas,Region  3,199,0,199,32,,,missing,2,"UAMS Medical Center, Arkansas (transplant center hospital)",
NYWN-OP1,source_dsa,Upstate New York Transplant Services Inc,New York,Region  9,0,199,199,60,,,missing,2,"Upstate New York Transplant Services Inc, New York (organ procurement)",
KYUK-TX1,transplant_center,University of Kentucky Medical Center,Kentucky,Region  11,196,0,196,38,,,missing,2,"University of Kentucky Medical Center, Kentucky (transplant center hospital)",
OHCO-TX1,transplant_center,University of Toledo Medical Center,Ohio,Region  11,189,0,189,42,41.62,-83.617,facility_or_city,2,"University of Toledo Medical Center, Ohio (transplant center hospital)",nominatim_batch;review
TNST-TX1,transplant_center,Saint Thomas Hospital,Tennessee,Region  11,185,0,185,32,36.1297,-86.8446,facility_or_city,2,"Saint Thomas Hospital, Tennessee (transplant center hospital)",nominatim_batch;review
PATJ-TX1,transplant_center,Thomas Jefferson University Hospital,Pennsylvania,Region  2,184,0,184,32,39.9493,-75.158,facility_or_city,2,"Thomas Jefferson University Hospital, Pennsylvania (transplant center hospital)",nominatim_batch;review
NCBG-TX1,transplant_center,Wake Forest Baptist Medical Center,North Carolina,Region  11,182,0,182,30,36.0898,-80.2677,facility_or_city,2,"Wake Forest Baptist Medical Center, North Carolina (transplant center hospital)",nominatim_batch;review
NVUM-TX1,transplant_center,University Medical Center of Southern Nevada,Nevada,Region  5,179,0,179,28,,,missing,2,"University Medical Center of Southern Nevada, Nevada (transplant center hospital)",
NYFL-IO1,source_dsa,Finger Lakes Donor Recovery Network,New York,Region  9,0,179,179,64,,,missing,2,"Finger Lakes Donor Recovery Network, New York (organ procurement)",
LATU-TX1,transplant_center,Tulane Medical Center,Louisiana,Region  3,177,0,177,26,29.9559,-90.0763,facility_or_city,2,"Tulane Medical Center, Louisiana (transplant center hospital)",nominatim_batch;review
NYFL-TX1,transplant_center,"Strong Memorial Hospital, University of Rochester Medical Center",New York,Region  9,173,0,173,25,,,missing,2,"Strong Memorial Hospital, University of Rochester Medical Center, New York (transplant center hospital)",
FLMR-TX1,transplant_center,Memorial Regional Hospital,Florida,Region  3,170,0,170,25,26.0196,-80.1799,facility_or_city,2,"Memorial Regional Hospital, Florida (transplant center hospital)",nominatim_batch;review
NYWC-TX1,transplant_center,Westchester Medical Center,New York,Region  9,168,0,168,21,41.0874,-73.8067,facility_or_city,2,"Westchester Medical Center, New York (transplant center hospital)",nominatim_batch;review
MSUM-TX1,transplant_center,University of Mississippi Medical Center,Mississippi,Region  3,167,0,167,18,32.3309,-90.1723,facility_or_city,2,"University of Mississippi Medical Center, Mississippi (transplant center hospital)",nominatim_batch;review
HIOP-OP1,source_dsa,Legacy of Life Hawaii,Hawaii,Region  6,0,166,166,30,21.0943,-157.4983,state_centroid,2,"Legacy of Life Hawaii, Hawaii (organ procurement)",
AZGS-TX1,transplant_center,Banner-University Medical Center Phoenix,Arizona,Region  5,165,0,165,16,33.4647,-112.0586,facility_or_city,2,"Banner-University Medical Center Phoenix, Arizona (transplant center hospital)",nominatim_batch;review
ILPL-TX1,transplant_center,Rush University Medical Center,Illinois,Region  7,164,0,164,22,41.8746,-87.6691,facility_or_city,2,"Rush University Medical Center, Illinois (transplant center hospital)",nominatim_batch;review
MANM-TX1,transplant_center,Tufts Medical Center,Massachusetts,Region  1,160,0,160,19,42.3497,-71.0639,facility_or_city,2,"Tufts Medical Center, Massachusetts (transplant center hospital)",nominatim_batch;review
PAAG-TX1,transplant_center,Allegheny General Hospital,Pennsylvania,Region  2,155,0,155,28,40.457,-80.0033,facility_or_city,2,"Allegheny General Hospital, Pennsylvania (transplant center hospital)",nominatim_batch;review
MAUM-TX1,transplant_center,UMass Memorial Medical Center,Massachusetts,Region  1,154,0,154,18,42.2852,-71.7897,facility_or_city,2,"UMass Memorial Medical Center, Massachusetts (transplant center hospital)",nominatim_batch;review
MALC-TX1,transplant_center,Lahey Clinic Medical Center,Massachusetts,Region  1,152,0,152,16,42.4846,-71.2042,facility_or_city,2,"Lahey Clinic Medical Center, Massachusetts (transplant center hospital)",nominatim_batch;review
AZSJ-TX1,transplant_center,St. Joseph's Hospital and Medical Center,Arizona,Region  5,144,0,144,27,,,missing,2,"St. Joseph's Hospital and Medical Center, Arizona (transplant center hospital)",
CTYN-TX1,transplant_center,Yale New Haven Hospital,Connecticut,Region  1,137,0,137,22,41.3046,-72.9356,facility_or_city,2,"Yale New Haven Hospital, Connecticut (transplant center hospital)",nominatim_batch;review
MAPB-TX1,transplant_center,Brigham and Women's Hospital,Massachusetts,Region  1,134,0,134,35,42.3356,-71.106,facility_or_city,2,"Brigham and Women's Hospital, Massachusetts (transplant center hospital)",nominatim_batch;review
PAAE-TX1,transplant_center,Albert Einstein Medical Center,Pennsylvania,Region  2,133,0,133,26,,,missing,2,"Albert Einstein Medical Center, Pennsylvania (transplant center hospital)",
PALV-TX1,transplant_center,Lehigh Valley Hospital,Pennsylvania,Region  2,133,0,133,28,40.5652,-75.522,facility_or_city,2,"Lehigh Valley Hospital, Pennsylvania (transplant center hospital)",nominatim_batch;review
TXTC-TX1,transplant_center,Texas Children's Hospital,Texas,Region  4,133,0,133,29,29.7069,-95.4023,facility_or_city,2,"Texas Children's Hospital, Texas (transplant center hospital)",nominatim_batch;review
CTHH-TX1,transplant_center,Hartford Hospital,Connecticut,Region  1,130,0,130,24,41.7541,-72.6794,facility_or_city,2,"Hartford Hospital, Connecticut (transplant center hospital)",nominatim_batch;review
NJLL-TX1,transplant_center,Virtua Our Lady of Lourdes Hospital,New Jersey,Region  2,130,0,130,18,,,missing,2,"Virtua Our Lady of Lourdes Hospital, New Jersey (transplant center hospital)",
SCPG-TX1,transplant_center,Prisma Health Greenville Memorial Hospital,South Carolina,Region  11,129,0,129,19,34.8196,-82.4104,facility_or_city,2,"Prisma Health Greenville Memorial Hospital, South Carolina (transplant center hospital)",nominatim_batch;review
KYJH-TX1,transplant_center,Jewish Hospital,Kentucky,Region  11,127,0,127,27,38.2503,-85.7502,facility_or_city,2,"Jewish Hospital, Kentucky (transplant center hospital)",nominatim_batch;review
FLLM-TX1,transplant_center,Largo Medical Center,Florida,Region  3,121,0,121,21,27.9599,-82.7413,facility_or_city,2,"Largo Medical Center, Florida (transplant center hospital)",nominatim_batch;review
MOLH-TX1,transplant_center,St Luke's Hospital of Kansas City,Missouri,Region  8,118,0,118,21,39.0483,-94.5911,facility_or_city,2,"St Luke's Hospital of Kansas City, Missouri (transplant center hospital)",nominatim_batch;review
SCLA-TX1,transplant_center,MUSC Lancaster,South Carolina,Region  11,117,0,117,15,34.7178,-80.7884,facility_or_city,2,"MUSC Lancaster, South Carolina (transplant center hospital)",nominatim_batch;review
TXAS-TX1,transplant_center,Baylor  Scott and White All Saints Medical Center-Fort Worth,Texas,Region  4,114,0,114,9,,,missing,2,"Baylor  Scott and White All Saints Medical Center-Fort Worth, Texas (transplant center hospital)",
HIQM-TX1,transplant_center,The Queen's Medical Center,Hawaii,Region  6,112,0,112,2,21.3081,-157.8539,facility_or_city,2,"The Queen's Medical Center, Hawaii (transplant center hospital)",nominatim_batch;review
MIBH-TX1,transplant_center,Corewell Health William Beaumont University Hospital,Michigan,Region  10,109,0,109,23,,,missing,2,"Corewell Health William Beaumont University Hospital, Michigan (transplant center hospital)",
NYEC-TX1,transplant_center,Erie County Medical Center,New York,Region  9,107,0,107,36,42.9263,-78.8325,facility_or_city,2,"Erie County Medical Center, New York (transplant center hospital)",nominatim_batch;review
ILVA-TX1,transplant_center,Edward Hines Jr. Veterans Administration Medical Center,Illinois,Region  7,105,0,105,19,,,missing,2,"Edward Hines Jr. Veterans Administration Medical Center, Illinois (transplant center hospital)",
COPM-TX1,transplant_center,AdventHealth Porter,Colorado,Region  8,104,0,104,10,39.6718,-104.9741,facility_or_city,2,"AdventHealth Porter, Colorado (transplant center hospital)",nominatim_batch;review
IAIV-TX1,transplant_center,University of Iowa Hospitals and Clinics Transplant Programs,Iowa,Region  8,103,0,103,25,,,missing,2,"University of Iowa Hospitals and Clinics Transplant Programs, Iowa (transplant center hospital)",
MISH-TX1,transplant_center,Corewell Health Grand Rapids Hospitals,Michigan,Region  10,103,0,103,35,,,missing,2,"Corewell Health Grand Rapids Hospitals, Michigan (transplant center hospital)",
NJRW-TX1,transplant_center,Robert Wood Johnson University Hospital,New Jersey,Region  2,101,0,101,20,40.4953,-74.4496,facility_or_city,2,"Robert Wood Johnson University Hospital, New Jersey (transplant center hospital)",nominatim_batch;review
PRSJ-TX1,transplant_center,Auxilio Mutuo Hospital,Puerto Rico,Region  3,94,0,94,5,18.4096,-66.0511,facility_or_city,2,"Auxilio Mutuo Hospital, Puerto Rico (transplant center hospital)",nominatim_batch;review
MOSL-TX1,transplant_center,SSM Health Saint Louis University Hospital,Missouri,Region  8,93,0,93,16,38.6242,-90.2392,facility_or_city,2,"SSM Health Saint Louis University Hospital, Missouri (transplant center hospital)",nominatim_batch;review
VANG-TX1,transplant_center,Sentara Norfolk General Hospital,Virginia,Region  11,93,0,93,21,36.8625,-76.3038,facility_or_city,2,"Sentara Norfolk General Hospital, Virginia (transplant center hospital)",nominatim_batch;review
TXDR-TX1,transplant_center,Doctor's Hospital at Renaissance,Texas,Region  4,90,0,90,21,,,missing,2,"Doctor's Hospital at Renaissance, Texas (transplant center hospital)",
WASH-TX1,transplant_center,Providence Sacred Heart Medical Center & Children's Hospital,Washington,Region  6,90,0,90,5,,,missing,2,"Providence Sacred Heart Medical Center & Children's Hospital, Washington (transplant center hospital)",
CASH-TX1,transplant_center,Sharp Memorial Hospital,California,Region  5,86,0,86,19,32.7997,-117.1544,facility_or_city,2,"Sharp Memorial Hospital, California (transplant center hospital)",nominatim_batch;review
LAWK-TX1,transplant_center,Willis-Knighton Medical Center,Louisiana,Region  3,86,0,86,14,32.4849,-93.7787,facility_or_city,2,"Willis-Knighton Medical Center, Louisiana (transplant center hospital)",nominatim_batch;review
INSV-TX1,transplant_center,Ascension St. Vincent Hospital,Indiana,Region  10,85,0,85,22,37.9829,-87.4389,facility_or_city,2,"Ascension St. Vincent Hospital, Indiana (transplant center hospital)",nominatim_batch;review
NCEC-TX1,transplant_center,ECU Health Medical Center,North Carolina,Region  11,85,0,85,16,35.6076,-77.4029,facility_or_city,2,"ECU Health Medical Center, North Carolina (transplant center hospital)",nominatim_batch;review
TXPL-TX1,transplant_center,Medical City Fort Worth,Texas,Region  4,85,0,85,11,32.7357,-97.3451,facility_or_city,2,"Medical City Fort Worth, Texas (transplant center hospital)",nominatim_batch;review
TXSW-TX1,transplant_center,Scott and White Memorial Hospital,Texas,Region  4,85,0,85,16,,,missing,2,"Scott and White Memorial Hospital, Texas (transplant center hospital)",
COSL-TX1,transplant_center,Presbyterian/St Luke's Medical Center,Colorado,Region  8,82,0,82,15,39.7472,-104.967,facility_or_city,2,"Presbyterian/St Luke's Medical Center, Colorado (transplant center hospital)",nominatim_batch;review
WISL-TX1,transplant_center,Aurora St. Luke's Medical Center,Wisconsin,Region  7,82,0,82,18,42.99,-87.9504,facility_or_city,2,"Aurora St. Luke's Medical Center, Wisconsin (transplant center hospital)",nominatim_batch;review
WVCA-TX1,transplant_center,Charleston Area Medical Center,West Virginia,Region  2,79,0,79,18,38.3301,-81.6027,facility_or_city,2,"Charleston Area Medical Center, West Virginia (transplant center hospital)",nominatim_batch;review
WAVM-TX1,transplant_center,Virginia Mason Medical Center,Washington,Region  6,78,0,78,7,47.6102,-122.3279,facility_or_city,2,"Virginia Mason Medical Center, Washington (transplant center hospital)",nominatim_batch;review
PAGM-TX1,transplant_center,Geisinger Medical Center,Pennsylvania,Region  2,77,0,77,15,40.9681,-76.6046,facility_or_city,2,"Geisinger Medical Center, Pennsylvania (transplant center hospital)",nominatim_batch;review
ORGS-TX1,transplant_center,Legacy Good Samaritan Hospital and Medical Center,Oregon,Region  6,74,0,74,7,,,missing,2,"Legacy Good Samaritan Hospital and Medical Center, Oregon (transplant center hospital)",
CASJ-TX1,transplant_center,Saint Joseph Hospital,California,Region  5,72,0,72,11,33.7821,-117.864,facility_or_city,2,"Saint Joseph Hospital, California (transplant center hospital)",nominatim_batch;review
OKMD-TX1,transplant_center,OU Medical Center,Oklahoma,Region  4,71,0,71,12,35.4813,-97.5011,facility_or_city,2,"OU Medical Center, Oklahoma (transplant center hospital)",nominatim_batch;review
MISM-TX1,transplant_center,Mercy Health Saint Mary's,Michigan,Region  10,68,0,68,14,,,missing,2,"Mercy Health Saint Mary's, Michigan (transplant center hospital)",
MORH-TX1,transplant_center,Research Medical Center,Missouri,Region  8,67,0,67,12,39.0099,-94.5597,facility_or_city,2,"Research Medical Center, Missouri (transplant center hospital)",nominatim_batch;review
TXJS-TX1,transplant_center,University of Texas Medical Branch at Galveston,Texas,Region  4,66,0,66,12,29.312,-94.7763,facility_or_city,2,"University of Texas Medical Branch at Galveston, Texas (transplant center hospital)",nominatim_batch;review
DCGW-TX1,transplant_center,George Washington University Hospital,District of Columbia,Region  2,65,0,65,18,38.9014,-77.0506,facility_or_city,2,"George Washington University Hospital, District of Columbia (transplant center hospital)",nominatim_batch;review
ORVA-TX1,transplant_center,VA Portland Health Care System,Oregon,Region  6,65,0,65,6,,,missing,2,"VA Portland Health Care System, Oregon (transplant center hospital)",
CAPC-TX1,transplant_center,Lucile Salter Packard Children's Hospital at Stanford,California,Region  5,62,0,62,16,,,missing,2,"Lucile Salter Packard Children's Hospital at Stanford, California (transplant center hospital)",
GAMC-TX1,transplant_center,"Wellstar MCG Health, affiliated with Medical College of Georgia",Georgia,Region  3,59,0,59,11,,,missing,2,"Wellstar MCG Health, affiliated with Medical College of Georgia, Georgia (transplant center hospital)",
OHCM-TX1,transplant_center,Children's Hospital Medical Center,Ohio,Region  11,57,0,57,23,39.1409,-84.5023,facility_or_city,2,"Children's Hospital Medical Center, Ohio (transplant center hospital)",nominatim_batch;review
TXCM-TX1,transplant_center,Children's Medical Center of Dallas,Texas,Region  4,56,0,56,16,32.8095,-96.8375,facility_or_city,2,"Children's Medical Center of Dallas, Texas (transplant center hospital)",nominatim_batch;review
ILCH-TX1,transplant_center,Advocate Christ Medical Center,Illinois,Region  7,55,0,55,16,41.7218,-87.7302,facility_or_city,2,"Advocate Christ Medical Center, Illinois (transplant center hospital)",nominatim_batch;review
NYUM-TX1,transplant_center,State University of New York Upstate Medical University,New York,Region  9,55,0,55,17,43.0408,-76.1391,facility_or_city,2,"State University of New York Upstate Medical University, New York (transplant center hospital)",nominatim_batch;review
ILCM-TX1,transplant_center,Ann & Robert H. Lurie Children's Hospital of Chicago,Illinois,Region  7,54,0,54,17,41.8454,-87.9083,facility_or_city,2,"Ann & Robert H. Lurie Children's Hospital of Chicago, Illinois (transplant center hospital)",nominatim_batch;review
TNUK-TX1,transplant_center,University of Tennessee Medical Center at Knoxville,Tennessee,Region  11,54,0,54,16,,,missing,2,"University of Tennessee Medical Center at Knoxville, Tennessee (transplant center hospital)",
OHTC-TX1,transplant_center,The Christ Hospital,Ohio,Region  11,53,0,53,16,39.1208,-84.5111,facility_or_city,2,"The Christ Hospital, Ohio (transplant center hospital)",nominatim_batch;review
CACL-TX1,transplant_center,Children's Hospital Los Angeles,California,Region  5,52,0,52,9,34.0977,-118.2901,facility_or_city,2,"Children's Hospital Los Angeles, California (transplant center hospital)",nominatim_batch;review
TXHH-TX1,transplant_center,"Memorial Hermann Hospital, University of Texas at Houston",Texas,Region  4,52,0,52,14,,,missing,2,"Memorial Hermann Hospital, University of Texas at Houston, Texas (transplant center hospital)",
PACH-TX1,transplant_center,UPMC Children's Hospital of Pittsburgh,Pennsylvania,Region  2,51,0,51,22,40.4672,-79.9532,facility_or_city,2,"UPMC Children's Hospital of Pittsburgh, Pennsylvania (transplant center hospital)",nominatim_batch;review
PAVA-TX1,transplant_center,VA Pittsburgh Healthcare System,Pennsylvania,Region  2,51,0,51,16,40.4468,-79.9621,facility_or_city,2,"VA Pittsburgh Healthcare System, Pennsylvania (transplant center hospital)",nominatim_batch;review
AZUA-TX1,transplant_center,Banner University Medical Center-Tucson,Arizona,Region  5,50,0,50,12,32.2412,-110.9456,facility_or_city,2,"Banner University Medical Center-Tucson, Arizona (transplant center hospital)",nominatim_batch;review
CALA-TX1,transplant_center,Harbor UCLA Medical Center,California,Region  5,50,0,50,5,33.8294,-118.2948,facility_or_city,2,"Harbor UCLA Medical Center, California (transplant center hospital)",nominatim_batch;review
PADV-OP1,source_dsa,Gift of Life Donor Program,Pennsylvania,Region  2,0,1810,1810,124,39.9526,-75.1652,city_approx,3,"Gift of Life Donor Program, Pennsylvania (organ procurement)",city_approx:Philadelphia;high
CAOP-OP1,source_dsa,OneLegacy,California,Region  5,0,1767,1767,92,34.1336,-117.9073,city_approx,3,"OneLegacy, California (organ procurement)",city_approx:Los Angeles area (OneLegacy);high
TXSB-OP1,source_dsa,Southwest Transplant Alliance,Texas,Region  4,0,1372,1372,127,32.7767,-96.797,city_approx,3,"Southwest Transplant Alliance, Texas (organ procurement)",city_approx:Dallas;high
GALL-OP1,source_dsa,LifeLink of Georgia,Georgia,Region  3,0,1245,1245,123,33.749,-84.388,city_approx,3,"LifeLink of Georgia, Georgia (organ procurement)",city_approx:Atlanta;high
WALC-OP1,source_dsa,LifeCenter Northwest,Washington,Region  6,0,1224,1224,113,47.6145,-122.186,city_approx,3,"LifeCenter Northwest, Washington (organ procurement)",city_approx:Bellevue;high
TXGC-OP1,source_dsa,LifeGift Organ Donation Center,Texas,Region  4,0,1218,1218,116,29.7604,-95.3698,city_approx,3,"LifeGift Organ Donation Center, Texas (organ procurement)",city_approx:Houston;high
TNDS-OP1,source_dsa,Tennessee Donor Services,Tennessee,Region  11,0,1212,1212,131,36.1627,-86.7816,city_approx,3,"Tennessee Donor Services, Tennessee (organ procurement)",city_approx:Nashville;high
CADN-OP1,source_dsa,Donor Network West,California,Region  5,0,1145,1145,79,37.7799,-121.978,city_approx,3,"Donor Network West, California (organ procurement)",city_approx:San Ramon;medium
AZOB-OP1,source_dsa,Donor Network of Arizona,Arizona,Region  5,0,1121,1121,89,33.4484,-112.074,city_approx,3,"Donor Network of Arizona, Arizona (organ procurement)",city_approx:Phoenix;high
CORS-OP1,source_dsa,Donor Alliance,Colorado,Region  8,0,937,937,108,39.7392,-104.9903,city_approx,3,"Donor Alliance, Colorado (organ procurement)",city_approx:Denver;high
MNOP-OP1,source_dsa,LifeSource Upper Midwest Organ Procurement Organization,South Dakota,Region  7,0,885,885,113,44.975,-93.225,city_approx,3,"LifeSource Upper Midwest Organ Procurement Organization, South Dakota (organ procurement)",city_approx:Minneapolis;medium
AZMC-TX1,transplant_center,Mayo Clinic Hospital Arizona,Arizona,Region  5,806,0,806,42,33.5044,-112.074,city_approx,3,"Mayo Clinic Hospital Arizona, Arizona (transplant center hospital)",city_approx:Phoenix;high
GAEM-TX1,transplant_center,Emory University Hospital,Georgia,Region  3,724,0,724,49,33.7925,-84.3244,city_approx,3,"Emory University Hospital, Georgia (transplant center hospital)",city_approx:Atlanta;high
TXMH-TX1,transplant_center,Houston Methodist Hospital,Texas,Region  4,689,0,689,48,29.7097,-95.3984,city_approx,3,"Houston Methodist Hospital, Texas (transplant center hospital)",city_approx:Houston;high
UTOP-OP1,source_dsa,DonorConnect,Utah,Region  5,0,585,585,79,40.7608,-111.891,city_approx,3,"DonorConnect, Utah (organ procurement)",city_approx:Salt Lake City;high
MOCH-TX1,transplant_center,St. Louis Children's Hospital at Washington University Medical Center,Missouri,Region  8,49,0,49,22,,,missing,3,"St. Louis Children's Hospital at Washington University Medical Center, Missouri (transplant center hospital)",
TXFW-TX1,transplant_center,Texas Health Harris Methodist Fort Worth Hospital,Texas,Region  4,49,0,49,7,,,missing,3,"Texas Health Harris Methodist Fort Worth Hospital, Texas (transplant center hospital)",
TXVA-TX1,transplant_center,Michael E. DeBakey VA Medical Center,Texas,Region  4,49,0,49,10,29.7019,-95.3889,facility_or_city,3,"Michael E. DeBakey VA Medical Center, Texas (transplant center hospital)",nominatim_batch;review
NYSB-TX1,transplant_center,University Hospital of State University of New York at Stony Brook,New York,Region  9,47,0,47,10,,,missing,3,"University Hospital of State University of New York at Stony Brook, New York (transplant center hospital)",
DECC-TX1,transplant_center,Christiana Care Health Services,Delaware,Region  2,46,0,46,16,,,missing,3,"Christiana Care Health Services, Delaware (transplant center hospital)",
GAEH-TX1,transplant_center,Children’s Healthcare of Atlanta - Arthur M. Blank Hospital,Georgia,Region  3,45,0,45,19,33.8317,-84.3299,facility_or_city,3,"Children’s Healthcare of Atlanta - Arthur M. Blank Hospital, Georgia (transplant center hospital)",nominatim_batch;review
ILSF-TX1,transplant_center,OSF Saint Francis Medical Center,Illinois,Region  7,44,0,44,10,40.7024,-89.59,facility_or_city,3,"OSF Saint Francis Medical Center, Illinois (transplant center hospital)",nominatim_batch;review
WACH-TX1,transplant_center,Seattle Children's Hospital,Washington,Region  6,42,0,42,4,47.6631,-122.2825,facility_or_city,3,"Seattle Children's Hospital, Washington (transplant center hospital)",nominatim_batch;review
MACH-TX1,transplant_center,Boston Children's Hospital,Massachusetts,Region  1,41,0,41,19,42.3372,-71.1057,facility_or_city,3,"Boston Children's Hospital, Massachusetts (transplant center hospital)",nominatim_batch;review
TXLP-TX1,transplant_center,Las Palmas Medical Center,Texas,Region  4,41,0,41,6,31.77,-106.4983,facility_or_city,3,"Las Palmas Medical Center, Texas (transplant center hospital)",nominatim_batch;review
CAGH-TX1,transplant_center,Scripps Green Hospital,California,Region  5,40,0,40,8,32.8963,-117.2426,facility_or_city,3,"Scripps Green Hospital, California (transplant center hospital)",nominatim_batch;review
PAHH-TX1,transplant_center,Pinnacle Health System at Harrisburg Hospital,Pennsylvania,Region  2,40,0,40,17,,,missing,3,"Pinnacle Health System at Harrisburg Hospital, Pennsylvania (transplant center hospital)",
NJBI-TX1,transplant_center,Newark Beth Israel Medical Center,New Jersey,Region  2,39,0,39,20,40.7103,-74.2126,facility_or_city,3,"Newark Beth Israel Medical Center, New Jersey (transplant center hospital)",nominatim_batch;review
MNHC-TX1,transplant_center,Hennepin County Medical Center,Minnesota,Region  7,38,0,38,7,44.9712,-93.2604,facility_or_city,3,"Hennepin County Medical Center, Minnesota (transplant center hospital)",nominatim_batch;review
NJUH-TX1,transplant_center,University Hospital,New Jersey,Region  2,38,0,38,12,40.7405,-74.1912,facility_or_city,3,"University Hospital, New Jersey (transplant center hospital)",nominatim_batch;review
UTPC-TX1,transplant_center,Primary Children's Hospital,Utah,Region  5,38,0,38,12,40.7713,-111.8389,facility_or_city,3,"Primary Children's Hospital, Utah (transplant center hospital)",nominatim_batch;review
PACP-TX1,transplant_center,Children's Hospital of Philadelphia,Pennsylvania,Region  2,37,0,37,17,39.9477,-75.195,facility_or_city,3,"Children's Hospital of Philadelphia, Pennsylvania (transplant center hospital)",nominatim_batch;review
IAIM-TX1,transplant_center,Iowa Methodist Medical Center,Iowa,Region  8,36,0,36,6,41.5898,-93.6348,facility_or_city,3,"Iowa Methodist Medical Center, Iowa (transplant center hospital)",nominatim_batch;review
NYDS-TX1,transplant_center,"State University of New York, Downstate Medical Center",New York,Region  9,36,0,36,13,,,missing,3,"State University of New York, Downstate Medical Center, New York (transplant center hospital)",
DCWH-TX1,transplant_center,Washington Hospital Center,District of Columbia,Region  2,35,0,35,17,38.9287,-77.0148,facility_or_city,3,"Washington Hospital Center, District of Columbia (transplant center hospital)",nominatim_batch;review
OHCH-TX1,transplant_center,Nationwide Children's Hospital,Ohio,Region  11,34,0,34,18,39.9521,-82.979,facility_or_city,3,"Nationwide Children's Hospital, Ohio (transplant center hospital)",nominatim_batch;review
OKSJ-TX1,transplant_center,St John Medical Center,Oklahoma,Region  4,34,0,34,7,36.134,-95.9689,facility_or_city,3,"St John Medical Center, Oklahoma (transplant center hospital)",nominatim_batch;review
TXPM-TX1,transplant_center,Parkland Health and Hospital System,Texas,Region  4,33,0,33,7,,,missing,3,"Parkland Health and Hospital System, Texas (transplant center hospital)",
NDSL-TX1,transplant_center,Sanford Medical Center Fargo,North Dakota,Region  7,31,0,31,8,46.8455,-96.8768,facility_or_city,3,"Sanford Medical Center Fargo, North Dakota (transplant center hospital)",nominatim_batch;review
COCH-TX1,transplant_center,Children's Hospital Colorado,Colorado,Region  8,30,0,30,9,39.7452,-104.9678,facility_or_city,3,"Children's Hospital Colorado, Colorado (transplant center hospital)",nominatim_batch;review
NYAM-TX1,transplant_center,Albany Medical Center Hospital,New York,Region  9,30,0,30,11,42.6533,-73.7772,facility_or_city,3,"Albany Medical Center Hospital, New York (transplant center hospital)",nominatim_batch;review
RIRH-TX1,transplant_center,Rhode Island Hospital,Rhode Island,Region  1,30,0,30,7,41.8111,-71.409,facility_or_city,3,"Rhode Island Hospital, Rhode Island (transplant center hospital)",nominatim_batch;review
MABS-TX1,transplant_center,Baystate Medical Center,Massachusetts,Region  1,28,0,28,5,42.1215,-72.603,facility_or_city,3,"Baystate Medical Center, Massachusetts (transplant center hospital)",nominatim_batch;review
NMPH-TX1,transplant_center,Presbyterian Hospital,New Mexico,Region  5,28,0,28,4,35.0809,-106.6341,facility_or_city,3,"Presbyterian Hospital, New Mexico (transplant center hospital)",nominatim_batch;review
FLSH-TX1,transplant_center,Ascension Sacred Heart Pensacola,Florida,Region  3,27,0,27,9,30.4771,-87.2123,facility_or_city,3,"Ascension Sacred Heart Pensacola, Florida (transplant center hospital)",nominatim_batch;review
MISJ-TX1,transplant_center,Ascension St. John Hospital,Michigan,Region  10,26,0,26,9,42.6705,-82.945,facility_or_city,3,"Ascension St. John Hospital, Michigan (transplant center hospital)",nominatim_batch;review
MNAN-TX1,transplant_center,Abbott Northwestern Hospital,Minnesota,Region  7,26,0,26,9,44.9537,-93.2613,facility_or_city,3,"Abbott Northwestern Hospital, Minnesota (transplant center hospital)",nominatim_batch;review
TNEM-TX1,transplant_center,Erlanger Medical Center,Tennessee,Region  11,26,0,26,9,,,missing,3,"Erlanger Medical Center, Tennessee (transplant center hospital)",
AZCH-TX1,transplant_center,Phoenix Children's Hospital,Arizona,Region  5,25,0,25,8,33.4789,-112.0411,facility_or_city,3,"Phoenix Children's Hospital, Arizona (transplant center hospital)",nominatim_batch;review
NMAQ-TX1,transplant_center,"University Hospital, University of New Mexico Health Sciences Center",New Mexico,Region  5,25,0,25,4,,,missing,3,"University Hospital, University of New Mexico Health Sciences Center, New Mexico (transplant center hospital)",
ALCH-TX1,transplant_center,Children's of Alabama,Alabama,Region  3,24,0,24,10,33.5047,-86.8056,facility_or_city,3,"Children's of Alabama, Alabama (transplant center hospital)",nominatim_batch;review
VAHD-TX1,transplant_center,Henrico Doctors' Hospital,Virginia,Region  11,23,0,23,9,37.6033,-77.5415,facility_or_city,3,"Henrico Doctors' Hospital, Virginia (transplant center hospital)",nominatim_batch;review
MABU-TX1,transplant_center,Boston Medical Center,Massachusetts,Region  1,21,0,21,4,42.3342,-71.0746,facility_or_city,3,"Boston Medical Center, Massachusetts (transplant center hospital)",nominatim_batch;review
MEMC-TX1,transplant_center,Maine Medical Center,Maine,Region  1,20,0,20,3,43.6532,-70.2763,facility_or_city,3,"Maine Medical Center, Maine (transplant center hospital)",nominatim_batch;review
MOCM-TX1,transplant_center,Children's Mercy Hospital,Missouri,Region  8,20,0,20,11,39.0844,-94.5775,facility_or_city,3,"Children's Mercy Hospital, Missouri (transplant center hospital)",nominatim_batch;review
CAMB-TX1,transplant_center,UCSF Medical Center at Mission Bay,California,Region  5,19,0,19,7,37.7659,-122.3908,facility_or_city,3,"UCSF Medical Center at Mission Bay, California (transplant center hospital)",nominatim_batch;review
DCWR-TX1,transplant_center,Walter Reed National Military Medical Center at Bethesda,District of Columbia,Region  2,19,0,19,13,,,missing,3,"Walter Reed National Military Medical Center at Bethesda, District of Columbia (transplant center hospital)",
ILMM-TX1,transplant_center,Springfield Memorial Hospital,Illinois,Region  7,19,0,19,7,42.1222,-72.6047,facility_or_city,3,"Springfield Memorial Hospital, Illinois (transplant center hospital)",nominatim_batch;review
SDMK-TX1,transplant_center,Avera McKennan Hospital,South Dakota,Region  7,19,0,19,6,43.5343,-96.7138,facility_or_city,3,"Avera McKennan Hospital, South Dakota (transplant center hospital)",nominatim_batch;review
SDSV-TX1,transplant_center,Sanford Health/USD Medical Center,South Dakota,Region  7,19,0,19,5,,,missing,3,"Sanford Health/USD Medical Center, South Dakota (transplant center hospital)",
WVWU-TX1,transplant_center,West Virginia University Hospitals Inc.,West Virginia,Region  2,19,0,19,13,,,missing,3,"West Virginia University Hospitals Inc., West Virginia (transplant center hospital)",
CACH-TX1,transplant_center,Rady Children's Hospital and Health Center,California,Region  5,17,0,17,6,,,missing,3,"Rady Children's Hospital and Health Center, California (transplant center hospital)",
WICH-TX1,transplant_center,Children's Hospital of Wisconsin,Wisconsin,Region  7,17,0,17,10,43.0422,-88.0235,facility_or_city,3,"Children's Hospital of Wisconsin, Wisconsin (transplant center hospital)",nominatim_batch;review
TNLB-TX1,transplant_center,Le Bonheur Children's Medical Center,Tennessee,Region  11,16,0,16,9,,,missing,3,"Le Bonheur Children's Medical Center, Tennessee (transplant center hospital)",
TXDM-TX1,transplant_center,North Austin Medical Center,Texas,Region  4,16,0,16,5,,,missing,3,"North Austin Medical Center, Texas (transplant center hospital)",
NHDH-TX1,transplant_center,Mary Hitchcock Memorial Hospital,New Hampshire,Region  1,14,0,14,6,,,missing,3,"Mary Hitchcock Memorial Hospital, New Hampshire (transplant center hospital)",
NYVA-TX1,transplant_center,James J. Peters VA Medical Center,New York,Region  9,14,0,14,6,,,missing,3,"James J. Peters VA Medical Center, New York (transplant center hospital)",
TXUC-TX1,transplant_center,University Children's Health,Texas,Region  4,14,0,14,4,,,missing,3,"University Children's Health, Texas (transplant center hospital)",
CASG-TX1,transplant_center,Sutter Medical Center Sacramento,California,Region  5,13,0,13,8,38.5715,-121.4687,facility_or_city,3,"Sutter Medical Center Sacramento, California (transplant center hospital)",nominatim_batch;review
MICH-TX1,transplant_center,Children's Hospital of Michigan,Michigan,Region  10,13,0,13,8,42.3519,-83.0548,facility_or_city,3,"Children's Hospital of Michigan, Michigan (transplant center hospital)",nominatim_batch;review
ORSV-TX1,transplant_center,Providence St. Vincent Medical Center,Oregon,Region  6,13,0,13,6,45.5109,-122.7741,facility_or_city,3,"Providence St. Vincent Medical Center, Oregon (transplant center hospital)",nominatim_batch;review
PAHE-TX1,transplant_center,Penn State Milton S Hershey Medical Center,Pennsylvania,Region  2,13,0,13,9,40.2654,-76.6732,facility_or_city,3,"Penn State Milton S Hershey Medical Center, Pennsylvania (transplant center hospital)",nominatim_batch;review
SCCH-TX1,transplant_center,MUSC Children's Hospital,South Carolina,Region  11,13,0,13,7,,,missing,3,"MUSC Children's Hospital, South Carolina (transplant center hospital)",
MOUM-TX1,transplant_center,University of Missouri Hospital and Clinics,Missouri,Region  8,12,0,12,7,,,missing,3,"University of Missouri Hospital and Clinics, Missouri (transplant center hospital)",
DCCH-TX1,transplant_center,Children's National Medical Center,District of Columbia,Region  2,11,0,11,8,,,missing,3,"Children's National Medical Center, District of Columbia (transplant center hospital)",
LACH-TX1,transplant_center,Children's Hospital,Louisiana,Region  3,11,0,11,4,30.0064,-90.1926,facility_or_city,3,"Children's Hospital, Louisiana (transplant center hospital)",nominatim_batch;review
NYCC-TX1,transplant_center,Long Island Jewish Medical Center-Cohen Children's Medical Center,New York,Region  9,11,0,11,7,,,missing,3,"Long Island Jewish Medical Center-Cohen Children's Medical Center, New York (transplant center hospital)",
KYKC-TX1,transplant_center,Norton Children's Hospital,Kentucky,Region  11,10,0,10,7,38.2484,-85.7497,facility_or_city,3,"Norton Children's Hospital, Kentucky (transplant center hospital)",nominatim_batch;review
TXDL-TX1,transplant_center,Dell Children's Medical Center,Texas,Region  4,10,0,10,7,,,missing,3,"Dell Children's Medical Center, Texas (transplant center hospital)",
ARBH-TX1,transplant_center,Baptist Medical Center,Arkansas,Region  3,9,0,9,6,35.4887,-92.0578,facility_or_city,3,"Baptist Medical Center, Arkansas (transplant center hospital)",nominatim_batch;review
TNBM-TX1,transplant_center,Baptist Memorial Hospital,Tennessee,Region  11,9,0,9,5,36.023,-88.4124,facility_or_city,3,"Baptist Memorial Hospital, Tennessee (transplant center hospital)",nominatim_batch;review
TXLM-TX1,transplant_center,Covenant Medical Center,Texas,Region  4,9,0,9,3,33.5769,-101.8921,facility_or_city,3,"Covenant Medical Center, Texas (transplant center hospital)",nominatim_batch;review
DEAI-TX1,transplant_center,Nemours Children's Hospital Delaware,Delaware,Region  2,8,0,8,6,,,missing,3,"Nemours Children's Hospital Delaware, Delaware (transplant center hospital)",
FLHM-TX1,transplant_center,Halifax Health,Florida,Region  3,8,0,8,4,29.2549,-81.1199,facility_or_city,3,"Halifax Health, Florida (transplant center hospital)",nominatim_batch;review
MOCG-TX1,transplant_center,Cardinal Glennon Children's Hospital,Missouri,Region  8,8,0,8,6,38.6258,-90.2385,facility_or_city,3,"Cardinal Glennon Children's Hospital, Missouri (transplant center hospital)",nominatim_batch;review
NDMC-TX1,transplant_center,Sanford Bismarck Medical Center,North Dakota,Region  7,8,0,8,2,,,missing,3,"Sanford Bismarck Medical Center, North Dakota (transplant center hospital)",
FLJD-TX1,transplant_center,Memorial Regional Hospital/Joe DiMaggio Children's Hospital,Florida,Region  3,7,0,7,5,,,missing,3,"Memorial Regional Hospital/Joe DiMaggio Children's Hospital, Florida (transplant center hospital)",
TXCT-TX1,transplant_center,Seton Medical Center Austin,Texas,Region  4,7,0,7,4,30.3051,-97.7461,facility_or_city,3,"Seton Medical Center Austin, Texas (transplant center hospital)",nominatim_batch;review
TXDS-TX1,transplant_center,Dell Seton Medical Center at The University of Texas at Austin,Texas,Region  4,7,0,7,5,,,missing,3,"Dell Seton Medical Center at The University of Texas at Austin, Texas (transplant center hospital)",
ARCH-TX1,transplant_center,Arkansas Children's Hospital,Arkansas,Region  3,6,0,6,6,34.7408,-92.2916,facility_or_city,3,"Arkansas Children's Hospital, Arkansas (transplant center hospital)",nominatim_batch;review
PAPH-TX1,transplant_center,UPMC Hamot,Pennsylvania,Region  2,6,0,6,4,42.1338,-80.0873,facility_or_city,3,"UPMC Hamot, Pennsylvania (transplant center hospital)",nominatim_batch;review
TXCF-TX1,transplant_center,Cook Children's Medical Center,Texas,Region  4,6,0,6,4,32.7366,-97.3411,facility_or_city,3,"Cook Children's Medical Center, Texas (transplant center hospital)",nominatim_batch;review
TXDC-TX1,transplant_center,Driscoll Children's Hospital,Texas,Region  4,6,0,6,3,27.7487,-97.3865,facility_or_city,3,"Driscoll Children's Hospital, Texas (transplant center hospital)",nominatim_batch;review
IAVA-TX1,transplant_center,The Iowa City VA Health Care System,Iowa,Region  8,5,0,5,4,,,missing,3,"The Iowa City VA Health Care System, Iowa (transplant center hospital)",
MIDV-TX1,transplant_center,Corewell Health Helen DeVos Children's Hospital,Michigan,Region  10,3,0,3,3,,,missing,3,"Corewell Health Helen DeVos Children's Hospital, Michigan (transplant center hospital)",
NECH-TX1,transplant_center,Children’s Nebraska,Nebraska,Region  8,3,0,3,3,41.2608,-96.0418,facility_or_city,3,"Children’s Nebraska, Nebraska (transplant center hospital)",nominatim_batch;review
ALVA-TX1,transplant_center,,,,2,0,2,1,39.7837,-100.4459,facility_or_city,3,",  (transplant center hospital)",nominatim_batch;review
FLAC-TX1,transplant_center,Johns Hopkins All Children's Hospital,Florida,Region  3,2,0,2,2,27.7629,-82.6398,facility_or_city,3,"Johns Hopkins All Children's Hospital, Florida (transplant center hospital)",nominatim_batch;review
OKCM-TX1,transplant_center,Children's Hospital of Oklahoma,Oklahoma,Region  4,2,0,2,2,,,missing,3,"Children's Hospital of Oklahoma, Oklahoma (transplant center hospital)",
PRCC-TX1,transplant_center,Cardiovascular Center of Puerto Rico and the Caribbean,Puerto Rico,Region  3,2,0,2,1,,,missing,3,"Cardiovascular Center of Puerto Rico and the Caribbean, Puerto Rico (transplant center hospital)",
MNCM-TX1,transplant_center,Children's Minnesota,Minnesota,Region  7,1,0,1,1,44.9578,-93.2732,facility_or_city,3,"Children's Minnesota, Minnesota (transplant center hospital)",nominatim_batch;review
PASC-TX1,transplant_center,St. Christopher's Hospital for Children,Pennsylvania,Region  2,1,0,1,1,40.0063,-75.1256,facility_or_city,3,"St. Christopher's Hospital for Children, Pennsylvania (transplant center hospital)",nominatim_batch;review
VACH-TX1,transplant_center,Children's Hospital of the King's Daughters,Virginia,Region  11,1,0,1,1,36.8622,-76.302,facility_or_city,3,"Children's Hospital of the King's Daughters, Virginia (transplant center hospital)",nominatim_batch;review